name_formal,state,gov_type,country_code,official_count,term_length,url,upcoming_election,ue_remarks,ue_url_1,special,runoff,lat,lon,next_election_display
Albany Common Council,NY,LOCAL,US,16,4,https://www.albanyny.gov/Government/CityOfficials/CommonCouncil.aspx,2021-11-02 05:00:00+00:00,,,False,False,42.6610874341904,-73.7876472085018,"Nov 02, 2021"
Albuquerque City Council & Mayor,NM,LOCAL,US,9,4 years,http://www.cabq.gov/council/,2021-11-02 05:00:00+00:00,Mayor and odd districts,https://en.wikipedia.org/wiki/2021_Albuquerque_mayoral_election,False,False,35.1071105918069,-106.627846672883,"Nov 02, 2021"
Alexandria City Council,VA,LOCAL,US,7,3 years,https://www.alexandriava.gov/Council,2021-11-02 05:00:00+00:00,Mayor and all council seats,,False,False,38.8183741860603,-77.0861700574738,"Nov 02, 2021"
Allegheny County Council,PA,LOCAL,US,15,4 years,http://www.alleghenycounty.us/council/index.aspx,2021-11-02 05:00:00+00:00,"1, 3, 4, 8, 9, 12",http://www.alleghenycounty.us/elections/election-calendar.aspx,False,False,40.4480983612023,-79.9714352883813,"Nov 02, 2021"
Allentown City Council & Mayor,PA,LOCAL,US,7,4 years,https://www.allentownpa.gov/Government/City-Council,2021-11-02 05:00:00+00:00,Mayor + 4 council seats,,False,False,40.5961003588033,-75.4755418471669,"Nov 02, 2021"
Arlington County Board,VA,LOCAL,US,5,4 years,https://countyboard.arlingtonva.us/,2021-11-02 05:00:00+00:00,One seat,,False,False,38.8785851111084,-77.101017493324,"Nov 02, 2021"
Arvada City Council,CO,LOCAL,US,7,4 years,https://arvada.org/city-hall/city-council,2021-11-02 05:00:00+00:00,"Districts 1, 3 and 1 at-large",,False,False,39.8274556104234,-105.130621421206,"Nov 02, 2021"
Atlanta City Council & Mayor,GA,LOCAL,US,16,4 years,http://citycouncil.atlantaga.gov/,2021-11-02 05:00:00+00:00,All seats,,False,False,33.7634588899988,-84.4103598088574,"Nov 02, 2021"
Atlantic City Council & Mayor,NJ,LOCAL,US,9,4 years,http://www.cityofatlanticcity.org/Departments/administration-department,2021-11-02 05:00:00+00:00,,,False,False,39.3704606630912,-74.444733104243,"Nov 02, 2021"
Aurora City Council,CO,LOCAL,US,10,4 years,https://www.auroragov.org/city_hall/mayor___city_council/,2021-11-02 05:00:00+00:00,"Wards I, II, and III + 2 At-Large seats",,False,False,39.6817986910652,-104.790575755273,"Nov 02, 2021"
Bellevue City Council,WA,LOCAL,US,7,4 years,https://bellevuewa.gov/city-government/city-council/,2021-11-02 05:00:00+00:00,Even Positions,,False,False,47.5953193040164,-122.155046579526,"Nov 02, 2021"
Billings City Council & Mayor,MT,LOCAL,US,10,4 years,http://ci.billings.mt.us/107/City-Council,2021-11-02 05:00:00+00:00,Mayor and 1 seat from each district,,False,False,45.7894298953001,-108.550172716828,"Nov 02, 2021"
Boise City Council,ID,LOCAL,US,6,4 years,http://citycouncil.cityofboise.org/,2021-11-02 05:00:00+00:00,"Seats 2, 4, 6",https://www.cityofboise.org/departments/finance-and-administration/city-clerk/city-elections/,False,False,43.6005449201152,-116.2317299586,"Nov 02, 2021"
Boston City Council & Mayor,MA,LOCAL,US,13,2 years,http://www.cityofboston.gov/citycouncil/,2021-11-02 05:00:00+00:00,13 seats,https://en.wikipedia.org/wiki/2021_Boston_City_Council_election,False,False,42.318415774191,-71.0904615823079,"Nov 02, 2021"
Boulder City Council,CO,LOCAL,US,9,4 years and 2 years (for 5th member elected each election),https://bouldercolorado.gov/city-council,2021-11-02 05:00:00+00:00,,,False,False,40.0272930114511,-105.251550810652,"Nov 02, 2021"
Bridgeport City Council,CT,LOCAL,US,20,2 years,https://bridgeportct.gov/content/341441/341399/default.aspx,2021-11-02 05:00:00+00:00,All seats,,False,False,41.1914776875054,-73.1970507626342,"Nov 02, 2021"
Bronx Borough President,NY,LOCAL,US,1,4 years,http://bronxboropres.nyc.gov/,2021-11-02 05:00:00+00:00,,,False,False,40.7186206645279,-73.9239051354752,"Nov 02, 2021"
Brooklyn Borough President,NY,LOCAL,US,1,4 years,http://www.brooklyn-usa.org/,2021-11-02 05:00:00+00:00,,,False,False,40.7186206645279,-73.9239051354752,"Nov 02, 2021"
Bucks County District Attorney,PA,LOCAL,US,1,4 years,http://www.buckscounty.org/government/RowOfficers/DistrictAttorney,2021-11-02 05:00:00+00:00,,,False,False,40.3368861357464,-75.1068197404598,"Nov 02, 2021"
Buffalo Mayor,NY,LOCAL,US,1,,https://www.buffalony.gov/490/Mayor,2021-11-02 05:00:00+00:00,,,False,False,42.9082295345728,-78.8494448407554,"Nov 02, 2021"
Cambridge City Council,MA,LOCAL,US,9,2 years,https://www.cambridgema.gov/Departments/citycouncil,2021-11-02 05:00:00+00:00,,,False,False,42.3757984497285,-71.1183737849265,"Nov 02, 2021"
Cedar Rapids City Council,IA,LOCAL,US,9,4 years,http://www.cedar-rapids.org/local_government/city_council/mayor_and_city_council/index.php,2021-11-02 05:00:00+00:00,"1 at-large seat and districts 1, 3, 5; mayor",,False,False,41.980152755983,-91.6761204473296,"Nov 02, 2021"
Centennial City Council,CO,LOCAL,US,9,4 years,https://www.centennialco.gov/Government/Mayor-Council,2021-11-02 05:00:00+00:00,Mayor and 1 seat from each district,,False,False,39.5953214951982,-104.874917940387,"Nov 02, 2021"
Charleston City Council,SC,LOCAL,US,12,4 years,http://charleston-sc.gov/index.aspx?NID=180,2021-11-02 05:00:00+00:00,Even numbered districts.,,False,False,,,
Chester County Controller,PA,LOCAL,US,1,,https://www.chesco.org/206/Controller,2021-11-02 05:00:00+00:00,,,False,False,39.9732178954786,-75.7484332994859,"Nov 02, 2021"
Cincinnati City Council & Mayor,OH,LOCAL,US,9,4 years,http://www.cincinnati-oh.gov/council/pages/-3412-/,2021-11-02 05:00:00+00:00,,,False,False,39.1412705690365,-84.505915298459,"Nov 02, 2021"
Cleveland City Council & Mayor,OH,LOCAL,US,17,4 years,http://www.clevelandcitycouncil.org/,2021-11-02 05:00:00+00:00,,,False,False,41.4792066313414,-81.6704514896954,"Nov 02, 2021"
College Station City Council,TX,LOCAL,US,7,4 years,https://www.cstx.gov/departments___city_hall/council,2021-11-02 05:00:00+00:00,Two at-large seats (Place 4 and Place 6).,https://www.cstx.gov/departments___city_hall/elections,False,False,30.585274890598,-96.2959455101368,"Nov 02, 2021"
Columbia City Council & Mayor,SC,LOCAL,US,6,4 years,https://www.columbiasc.net/city-council,2021-11-02 05:00:00+00:00,"Mayor, Districts 1 and 4, and one At-Large council member.",,False,False,34.0283806295737,-80.9672501849945,"Nov 02, 2021"
Columbus City Council,OH,LOCAL,US,7,4 years,http://www.columbuscitycouncil.org/,2021-11-02 05:00:00+00:00,,,False,False,39.9861710531357,-82.9850078120377,"Nov 02, 2021"
Davenport City Council & Mayor,IA,LOCAL,US,10,2 years,http://www.cityofdavenportiowa.com/cms/One.aspx?portalId=6481456&pageId=7274096,2021-11-02 05:00:00+00:00,All seats,,False,False,41.5535592811237,-90.5933592825869,"Nov 02, 2021"
Dayton City Commission,OH,LOCAL,US,5,4 years,https://www.daytonohio.gov/159/City-Commission-Office,2021-11-02 05:00:00+00:00,3 seats,https://www.mcohio.org/government/county_agencies/board_of_elections/upcoming_elections/index.php,False,False,39.7797607738843,-84.199802366801,"Nov 02, 2021"
Delaware County Council & Controller,PA,LOCAL,US,5,4 years,https://www.delcopa.gov/electedofficials/index.html,2021-11-02 05:00:00+00:00,2 seats,,False,False,39.9166978025274,-75.399033527915,"Nov 02, 2021"
Des Moines City Council,IA,LOCAL,US,7,4 years,https://www.dsm.city/government/index.php,2021-11-02 05:00:00+00:00,"Wards 1 and 3, At-large",,False,False,41.5831535260806,-93.6155235234982,"Nov 02, 2021"
Detroit City Council & Mayor,MI,LOCAL,US,9,4 years,http://www.detroitmi.gov/Government/City-Council,2021-11-02 05:00:00+00:00,,,False,False,42.3870919491186,-83.1065380273021,"Nov 02, 2021"
Durham City Council,NC,LOCAL,US,7,4 years (2 years for Mayor),https://durhamnc.gov/1323/City-Council,2021-11-02 05:00:00+00:00,"Mayor, Wards 1, 2, 3",http://www.dcovotes.com/voters/current-elections,False,False,35.9791176148182,-78.8864119922003,"Nov 02, 2021"
Edinburg City Council,TX,LOCAL,US,5,4 years,https://cityofedinburg.com/government/mayor_and_city_council/index.php,2021-11-02 05:00:00+00:00,"Mayor, Place 1, Place 2",,False,False,26.3195500011118,-98.1596100031045,"Nov 02, 2021"
Edison Township Council & Mayor,NJ,LOCAL,US,7,4 years,http://www.edisonnj.org/departments/council/index.php,2021-11-02 05:00:00+00:00,Mayor and 3 council seats,,False,False,40.5369818088393,-74.3699590495015,"Nov 02, 2021"
"Erie City Council, Mayor & Controller",PA,LOCAL,US,7,4 years,https://cityof.erie.pa.us/government/city-council/city-council-members/,2021-11-02 05:00:00+00:00,,,False,False,42.1164678977521,-80.0730672775142,"Nov 02, 2021"
Everett City Council & Mayor,WA,LOCAL,US,7,4 years,https://everettwa.gov/409/City-Council,2021-11-02 05:00:00+00:00,Mayor plus 3 council seats.,,False,False,47.9610989907849,-122.188189350964,"Nov 02, 2021"
Gatineau City Council & Mayor,QC,LOCAL,CA,18,4 years,https://www.gatineau.ca/portail/default.aspx?p=guichet_municipal/conseil_municipal,2021-11-07 05:00:00+00:00,Mayor + 18 councillors,,False,False,45.4797949409778,-75.6961234552507,"Nov 07, 2021"
Grand Rapids City Commission,MI,LOCAL,US,7,4 years,https://www.grandrapidsmi.gov/Government/City-Commission,2021-11-02 05:00:00+00:00,One official from each ward,,False,False,42.9589987629354,-85.6538067078748,"Nov 02, 2021"
Greeley City Council,CO,LOCAL,US,7,4 years (2 years for Mayor),https://greeleygov.com/government/council,2021-11-02 05:00:00+00:00,"District 2, District 3, and 2 At Large seats (one of which is Mayor)",,False,False,40.413920829969,-104.748387769102,"Nov 02, 2021"
Greenville City Council,SC,LOCAL,US,6,4 years,http://www.greenvillesc.gov/283/City-Council,2021-11-02 05:00:00+00:00,"District 2, 4 and 1 At Large",https://www.scvotes.org/greenville,False,False,34.8411294925188,-82.3704825079734,"Nov 02, 2021"
"Harrisburg City Council, Mayor & Controller",PA,LOCAL,US,7,4 years,http://harrisburgcitycouncil.com/,2021-11-02 05:00:00+00:00,"Mayor, Controller, half of council",,False,False,40.2753278996031,-76.8840032450274,"Nov 02, 2021"
Hialeah City Council & Mayor,FL,LOCAL,US,7,4 years,http://www.hialeahfl.gov/435/City-Council,2021-11-02 05:00:00+00:00,Mayor and 4 council seats,,False,False,25.8696293203288,-80.3045458132913,"Nov 02, 2021"
High Point City Council,NC,LOCAL,US,9,2 years,https://www.highpointnc.gov/153/City-Council,2021-11-02 05:00:00+00:00,,https://www.guilfordcountync.gov/our-county/board-of-elections,False,False,35.9894046606049,-79.9929238738573,"Nov 02, 2021"
Jacksonville City Council,FL,LOCAL,US,19,,http://www.coj.net/city-council/city-council-members,2021-12-07 05:00:00+00:00,One at-large seat.,,False,False,30.3053317588755,-81.6418823063599,"Dec 07, 2021"
Jersey City City Council & Mayor,NJ,LOCAL,US,9,4 years,https://www.cityofjerseycity.com/cityhall/citycouncil,2021-11-02 05:00:00+00:00,,,False,False,40.7187808195513,-74.0625817573269,"Nov 02, 2021"
Kansas City Board of Commissioners & Mayor/CEO,KS,LOCAL,US,10,4 years,http://www.wycokck.org/Commissioners.aspx,2021-11-02 05:00:00+00:00,"Mayor/CEO, 1 At-large seat and districts 1, 5, 7, 8",,False,False,39.1104211553518,-94.7223473404301,"Nov 02, 2021"
Kent City Council & Mayor,WA,LOCAL,US,7,4 years,https://www.kentwa.gov/city-hall/kent-city-council,2021-11-02 05:00:00+00:00,Mayor and even districts,,False,False,47.3887724445185,-122.212836390793,"Nov 02, 2021"
King County Council & Executive,WA,LOCAL,US,9,4 years,https://kingcounty.gov/council.aspx,2021-11-02 05:00:00+00:00,Executive and odd districts,,False,False,47.5212956360339,-122.123508871335,"Nov 02, 2021"
Knoxville City Council,TN,LOCAL,US,9,4 years,http://www.knoxvilletn.gov/cms/One.aspx?portalId=109562&pageId=131053,2021-11-02 05:00:00+00:00,"Districts 1, 2, 3, 4, 6",http://knoxvilletn.gov/residents/newcomer_information/election_information,False,False,35.9686696125279,-83.9506103942188,"Nov 02, 2021"
Lévis City Council & Mayor,QC,LOCAL,CA,15,4 years,https://www.ville.levis.qc.ca/la-ville/conseil-municipal/elus/,2021-11-07 05:00:00+00:00,All.,,False,False,46.7388106703878,-71.2247969201031,"Nov 07, 2021"
Lakeland City Commission,FL,LOCAL,US,7,4 years,https://www.lakelandgov.net/government/mayor-city-commission/,2021-11-02 05:00:00+00:00,"Mayor, 1 at-large, C, and D",https://www.lakelandgov.net/departments/city-clerk/elections/,False,False,28.0494413625009,-81.9590292726858,"Nov 02, 2021"
Lakewood City Council,CO,LOCAL,US,11,4 years,http://www.lakewood.org/CityCouncil/,2021-11-02 05:00:00+00:00,1 council member from each ward,https://www.jeffco.us/578/Election-Results,False,False,39.7013087262983,-105.111350906896,"Nov 02, 2021"
Lakewood Township Committee,NJ,LOCAL,US,5,3 years,https://www.lakewoodnj.gov/section/government,2021-11-02 05:00:00+00:00,2 seats,,False,False,40.0763407767004,-74.2030940807247,"Nov 02, 2021"
Lansing City Council & Mayor,MI,LOCAL,US,8,4 years,https://www.lansingmi.gov/267/City-Council,2021-11-02 05:00:00+00:00,"Mayor and 2 at-large seats, ward 2, and ward 4",,False,False,42.7147286389293,-84.5576477731566,"Nov 02, 2021"
Las Cruces City Council,NM,LOCAL,US,7,4 years,https://www.las-cruces.org/1487/City-Council,2021-11-02 05:00:00+00:00,3 seats,,False,False,32.3248549305988,-106.77354817278,"Nov 02, 2021"
Laval City Council & Mayor,QC,LOCAL,CA,21,4 years,https://www.laval.ca/Pages/Fr/A-propos/conseillers-municipaux.aspx,2021-11-07 05:00:00+00:00,Mayor plus 21 councillors,,False,False,45.5830244279889,-73.7393219271491,"Nov 07, 2021"
Longueuil City Council & Mayor,QC,LOCAL,CA,15,4 years,https://www.longueuil.quebec/fr/services/instances-decisionnelles-et-consultatives/conseil-de-ville,2021-11-07 05:00:00+00:00,Mayor and City Council,https://www.longueuil.quebec/fr/election-municipale,False,False,45.5184248981743,-73.4582342337795,"Nov 07, 2021"
Lowell City Council,MA,LOCAL,US,9,2 years,https://www.lowellma.gov/517/City-Council,2021-11-02 05:00:00+00:00,First election in districts,,False,False,42.6388709136306,-71.3217140263818,"Nov 02, 2021"
Manchester Board of Aldermen & Mayor,NH,LOCAL,US,14,2 years,https://www.manchesternh.gov/Mayor-and-Aldermen/Aldermen,2021-11-02 05:00:00+00:00,,,False,False,42.9872171748831,-71.450589751053,"Nov 02, 2021"
Manhattan Borough President,NY,LOCAL,US,1,4 years,https://www.manhattanbp.nyc.gov/,2021-11-02 05:00:00+00:00,,,False,False,40.7186206645279,-73.9239051354752,"Nov 02, 2021"
Mayor of Sandy Springs,GA,LOCAL,US,1,4 years,http://www.sandyspringsga.gov/government/mayor-s-office,2021-11-02 05:00:00+00:00,All seats,,False,False,33.9375181308951,-84.3687301151361,"Nov 02, 2021"
Mayor of the City of New York,NY,LOCAL,US,1,4 years,http://www.nyc.gov/,2021-11-02 05:00:00+00:00,,https://en.wikipedia.org/wiki/2021_New_York_City_mayoral_election,False,False,40.7186206645279,-73.9239051354752,"Nov 02, 2021"
Meridian City Council,ID,LOCAL,US,6,4 years,https://meridiancity.org/council/,2021-11-02 05:00:00+00:00,"Seats 2,4,6",,False,False,43.6115751946026,-116.398046380737,"Nov 02, 2021"
Mesquite City Council,TX,LOCAL,US,7,2 years,https://www.cityofmesquite.com/131/City-Council,2021-11-02 05:00:00+00:00,"Mayor and Places 1, 2, 3, 4, 5 and 6",https://www.cityofmesquite.com/152/Elections,False,False,32.7755809167494,-96.6042025493601,"Nov 02, 2021"
Miami City Commission & Mayor,FL,LOCAL,US,5,4 years,https://www.miamigov.com/Government/City-Officials,2021-11-02 05:00:00+00:00,Districts 3 and 5,,False,False,25.7822063119582,-80.2242654610371,"Nov 02, 2021"
Midland City Council,TX,LOCAL,US,7,3 years,http://www.midlandtexas.gov/238/Mayor-City-Council,2021-11-02 05:00:00+00:00,"Districts 1 and 2, plus 2 at-large seats",,False,False,32.0186292347012,-102.114694878918,"Nov 02, 2021"
Minneapolis City Council & Mayor,MN,LOCAL,US,13,4 years,http://www.ci.minneapolis.mn.us/council/,2021-11-02 05:00:00+00:00,13 seats from wards,https://en.wikipedia.org/wiki/2021_Minneapolis_City_Council_election,False,False,44.9609764597756,-93.2683589786542,"Nov 02, 2021"
Montréal City Council & Mayor,QC,LOCAL,CA,103,4 years,"https://ville.montreal.qc.ca/portal/page?_pageid=5798,85933591&_dad=portal&_schema=PORTAL",2021-11-07 05:00:00+00:00,65 seats,https://en.wikipedia.org/wiki/2021_Montreal_municipal_election,False,False,45.5284478803219,-73.6321994620133,"Nov 07, 2021"
Myrtle Beach City Council & Mayor,SC,LOCAL,US,6,4 years,https://www.cityofmyrtlebeach.com/government/mayor_and_city_concil/index.php,2021-11-02 05:00:00+00:00,3 At-Large City council seats (all positions are At-Large) and Mayor are up for election. ,,False,False,33.7088862993339,-78.8853998184954,"Nov 02, 2021"
New Haven Board of Alders & Mayor,CT,LOCAL,US,30,2 years,https://www.newhavenct.gov/gov/depts/alders/default.htm,2021-11-02 05:00:00+00:00,,https://www.newhavenct.gov/gov/depts/clerk/election.htm,False,False,41.3123675150303,-72.9235091889874,"Nov 02, 2021"
"New Jersey General Assembly, State Senate, Governor, & Lieutenant Governor",NJ,STATE,US,40,2 or 4 Years,https://www.njleg.state.nj.us/,2021-11-02 05:00:00+00:00,,,False,False,40.4240456024051,-74.4519332712688,"Nov 02, 2021"
New Orleans City Council & Mayor,LA,LOCAL,US,7,4 years,https://council.nola.gov/home/,2021-11-20 05:00:00+00:00,,,False,False,29.9899391950291,-89.999135135715,"Nov 20, 2021"
New York City Comptroller,NY,LOCAL,US,1,4 years,http://www.comptroller.nyc.gov/,2021-11-02 05:00:00+00:00,,,False,False,40.7186206645279,-73.9239051354752,"Nov 02, 2021"
New York City Council,NY,LOCAL,US,51,4 years,https://council.nyc.gov/,2021-11-02 05:00:00+00:00,51 seats,https://en.wikipedia.org/wiki/2021_New_York_City_Council_election,False,False,40.7186206645279,-73.9239051354752,"Nov 02, 2021"
New York City Public Advocate,NY,LOCAL,US,1,4 years,http://www.pubadvocate.nyc.gov/,2021-11-02 05:00:00+00:00,,,False,False,40.7186206645279,-73.9239051354752,"Nov 02, 2021"
Olathe City Council,KS,LOCAL,US,7,4 years,http://www.olatheks.org/government/city-council,2021-11-02 05:00:00+00:00,"1 at-large, wards 3, 4",https://jocoelection.org/election-facts,False,False,38.8827713107007,-94.8081931762121,"Nov 02, 2021"
Orlando City Council,FL,LOCAL,US,6,4 years,https://www.orlando.gov/Our-Government/Mayor-City-Council,2021-11-02 05:00:00+00:00,"Districts 1, 3, 5",,False,False,28.5087714757249,-81.3695587148265,"Nov 02, 2021"
Overland Park City Council,KS,LOCAL,US,13,4 years,https://www.opkansas.org/city-government/city-council/,2021-11-02 05:00:00+00:00,1 member from each of 6 districts.,,False,False,38.9120893052128,-94.6866381672771,"Nov 02, 2021"
Philadelphia City Controller & District Attorney,PA,LOCAL,US,1,4,,2021-11-02 05:00:00+00:00,,,False,False,40.003642722629,-75.1399952465174,"Nov 02, 2021"
Pittsburgh City Council & Mayor,PA,LOCAL,US,9,4 years,https://pittsburghpa.gov/council/,2021-11-02 05:00:00+00:00,Even-numbered council districts,,False,False,40.4413886035493,-79.9731065795818,"Nov 02, 2021"
Provo City Council & Mayor,UT,LOCAL,US,7,4 years,https://www.provo.org/government/city-council/meet-the-council,2021-11-02 05:00:00+00:00,"district 2, district 5, 1 at-large seat, and mayor",,False,False,40.2438826240123,-111.656301934869,"Nov 02, 2021"
Pueblo City Council,CO,LOCAL,US,7,4 years,https://www.pueblo.us/585/Council-Members,2021-11-02 05:00:00+00:00,"Districts 1, 3 and 2 at large positions",,False,False,38.2654477497697,-104.616557701401,"Nov 02, 2021"
Quebec City Council & Mayor,QC,LOCAL,CA,21,4 years,https://www.ville.quebec.qc.ca/apropos/gouvernance/conseil-municipal/index.aspx,2021-11-07 05:00:00+00:00,21 councillors,https://en.wikipedia.org/wiki/2021_Quebec_City_municipal_election,False,False,46.8367465515137,-71.2907800667884,"Nov 07, 2021"
Queens Borough President,NY,LOCAL,US,1,4 years,http://www.queensbp.org/,2021-11-02 05:00:00+00:00,,,False,False,40.7186206645279,-73.9239051354752,"Nov 02, 2021"
Renton City Council,WA,LOCAL,US,7,4 years,http://rentonwa.gov/council/,2021-11-02 05:00:00+00:00,3 seats,https://www.kingcounty.gov/depts/elections.aspx,False,False,47.4758597024735,-122.190340665367,"Nov 02, 2021"
Rochester City Council & Mayor,NY,LOCAL,US,9,4 years,http://www.cityofrochester.gov/article.aspx?id=8589935617,2021-11-02 05:00:00+00:00,Mayor and 4 At Large Seats,https://www2.monroecounty.gov/elections-index.php,False,False,43.1670390288372,-77.6127178689243,"Nov 02, 2021"
Saguenay City Council & Mayor,QC,LOCAL,CA,15,4 years,https://ville.saguenay.ca/la-ville-et-vie-democratique/conseils-municipaux-et-darrondissement/membres-des-conseils,2021-11-07 05:00:00+00:00,All.,,False,False,48.3923505328101,-71.1142004486255,"Nov 07, 2021"
Salt Lake City Council,UT,LOCAL,US,7,4 years,https://www.slc.gov/council/,2021-11-02 05:00:00+00:00,"Districts 1, 3, 5, 7",,False,False,40.7572380130586,-111.88490526445,"Nov 02, 2021"
Sandy Springs City Council,GA,LOCAL,US,6,4 years,http://www.sandyspringsga.gov/government/city-council,2021-11-02 05:00:00+00:00,All seats,,False,False,33.9375181308951,-84.3687301151361,"Nov 02, 2021"
Seattle City Council & Mayor,WA,LOCAL,US,9,4 years,https://www.seattle.gov/council,2021-11-02 05:00:00+00:00,districts 8 and 9,https://en.wikipedia.org/wiki/2021_Seattle_City_Council_election,False,False,47.6301192111893,-122.33292762084,"Nov 02, 2021"
Sherbrooke City Council & Mayor,QC,LOCAL,CA,16,4 years,https://www.ville.sherbrooke.qc.ca/fr/mairie-et-vie-democratique/conseil-municipal/,2021-11-07 05:00:00+00:00,All seats.,,False,False,45.3960118253667,-71.9127417354301,"Nov 07, 2021"
Spokane City Council,WA,LOCAL,US,7,4 years,https://my.spokanecity.org/citycouncil/,2021-11-02 05:00:00+00:00,Half of the council seats.,https://my.spokanecity.org/elections/,False,False,47.6744801355583,-117.415048126839,"Nov 02, 2021"
Spokane Valley City Council,WA,LOCAL,US,7,4 years,https://www.spokanevalley.org/content/6836/6892/default.aspx,2021-11-02 05:00:00+00:00,"Positions 1, 4, 5, 7",,False,False,47.6625893869225,-117.234599875113,"Nov 02, 2021"
Springfield City Council & Mayor,MA,LOCAL,US,13,2 years,https://www.springfield-ma.gov/cos/index.php?id=council,2021-11-02 05:00:00+00:00,,,False,False,42.1121936175479,-72.5498363163147,"Nov 02, 2021"
St. Paul Mayor,MN,LOCAL,US,1,4 years,https://www.stpaul.gov/departments/mayors-office,2021-11-02 05:00:00+00:00,,,False,False,44.9512270205362,-93.1082677146429,"Nov 02, 2021"
St. Petersburg City Council & Mayor,FL,LOCAL,US,8,4 years,http://www.stpete.org/council/index.asp,2021-11-02 05:00:00+00:00,Mayor and Even Numbered Districts,http://www.stpete.org/elections/index.php,False,False,27.7858652681396,-82.6664738158809,"Nov 02, 2021"
Stamford Board of Representatives & Mayor,CT,LOCAL,US,40,4 years,http://www.boardofreps.org/,2021-11-02 05:46:45+00:00,,,False,False,41.074532152187,-73.5420479850428,"Nov 02, 2021"
Staten Island Borough President,NY,LOCAL,US,1,4 years,http://www.statenislandusa.com/,2021-11-02 05:00:00+00:00,,,False,False,40.7186206645279,-73.9239051354752,"Nov 02, 2021"
Sterling Heights City Council,MI,LOCAL,US,7,2 years,https://www.sterling-heights.net/148/City-Council,2021-11-02 05:00:00+00:00,,,False,False,42.58098528413,-83.030368089749,"Nov 02, 2021"
Syracuse Common Council & Mayor,NY,LOCAL,US,10,2-4 years,http://www.syrgov.net/Common_Council.aspx,2021-11-02 05:00:00+00:00,"Mayor, all numbered council seats, 3 at large council seats",,False,False,43.0422375755857,-76.1416673592569,"Nov 02, 2021"
Tacoma City Council,WA,LOCAL,US,9,4 years,https://www.cityoftacoma.org/government/city_council,2021-11-02 05:00:00+00:00,"Mayor, districts 2, 4, 5, and 1 At Large seat.",,False,False,47.2414194724576,-122.459396878665,"Nov 02, 2021"
Terrebonne City Council & Mayor,QC,LOCAL,CA,16,4 years,https://www.ville.terrebonne.qc.ca/fr/10/Conseil_municipal,2021-11-07 05:00:00+00:00,All.,,False,False,45.7213015459762,-73.6659796418711,"Nov 07, 2021"
Thornton City Council,CO,LOCAL,US,9,4 years,https://www.cityofthornton.net/government/city-council/Pages/default.aspx,2021-11-02 05:00:00+00:00,1 member from each ward,,False,False,39.9118832822248,-104.949039433693,"Nov 02, 2021"
Toledo City Council & Mayor,OH,LOCAL,US,12,4 years,https://toledo.oh.gov/government/city-council/,2021-11-02 05:00:00+00:00,Mayor and at-large districts,,False,False,41.6649809496271,-83.580663259041,"Nov 02, 2021"
Topeka City Council,KS,LOCAL,US,10,4 years,https://www.topeka.org/citycouncil,2021-11-02 05:00:00+00:00,"Mayor and Districts 1, 3, 5, 7",https://www.snco.us/election/,False,False,39.0304630139346,-95.7013747934315,"Nov 02, 2021"
Trois-Rivières City Council & Mayor,QC,LOCAL,CA,14,4 years,https://www.v3r.net/a-propos-de-la-ville/vie-democratique/conseil-municipal,2021-11-07 05:00:00+00:00,All.,,False,False,46.3609516301423,-72.5831900702488,"Nov 07, 2021"
Tucson City Council,AZ,LOCAL,US,6,4 years,https://www.tucsonaz.gov/city-government,2021-11-02 05:00:00+00:00,"Wards 3, 5, 6",https://www.tucsonaz.gov/clerks/elections,False,False,32.1874969904522,-110.900003340263,"Nov 02, 2021"
Vancouver City Council,WA,LOCAL,US,7,4 years,https://www.cityofvancouver.us/citycouncil,2021-11-02 05:00:00+00:00,3 seats,https://www.clarkcountynv.gov/election/Pages/default.aspx,False,False,45.6351719510632,-122.597009437731,"Nov 02, 2021"
"Virginia House of Delegates, Governor, Lieutenant Governor, & Attorney General",VA,STATE,US,100,2 years,https://virginiageneralassembly.gov/index.php,2021-11-02 05:00:00+00:00,,,False,False,37.8151439305259,-77.8353671756458,"Nov 02, 2021"
Waterbury Board of Aldermen,CT,LOCAL,US,15,2 years,http://www.waterburyct.org/filestorage/9569/10451/BOA_2017-2019-Rev007.pdf,2021-11-02 05:00:00+00:00,,,False,False,41.5577849312554,-73.0341407704136,"Nov 02, 2021"
West Jordan City Council,UT,LOCAL,US,7,"2 years, 4 years",https://www.westjordan.utah.gov/mayor-and-city-council,2021-11-02 05:00:00+00:00,,,False,False,40.6045092302931,-111.992087891115,"Nov 02, 2021"
West Valley City Council,UT,LOCAL,US,7,4 years,https://www.wvc-ut.gov/15/City-Council,2021-11-02 05:00:00+00:00,"2 At-large, District 2, District 4",,False,False,40.6907221871085,-112.002556668255,"Nov 02, 2021"
Westminster City Council,CO,LOCAL,US,7,4 years,https://www.cityofwestminster.us/Government/CityCouncil,2021-11-02 05:00:00+00:00,Mayor + 3 council seats,,False,False,39.8836695983591,-105.06240786631,"Nov 02, 2021"
Wichita City Council,KS,LOCAL,US,7,4 years,https://www.wichita.gov/Council/Pages/default.aspx,2021-11-02 05:00:00+00:00,"Districts 1, 3, 6",https://www.sedgwickcounty.org/elections/,False,False,37.6906947074228,-97.3431702348633,"Nov 02, 2021"
Wichita Falls City Council,TX,LOCAL,US,7,2 years,https://www.wichitafallstx.gov/29/Mayor-and-City-Council,2021-11-02 05:00:00+00:00,,,False,False,33.8975558196748,-98.5302679519037,"Nov 02, 2021"
Wilmington City Council,NC,LOCAL,US,7,4 years (2 years for mayor),http://www.wilmingtonnc.gov/departments/city-council,2021-11-02 05:00:00+00:00,Mayor and 3 council seats,,False,False,34.2100015857209,-77.886077589905,"Nov 02, 2021"
Woodbridge Township Council,NJ,LOCAL,US,9,4 years,http://www.twp.woodbridge.nj.us/340/Council,2021-11-02 05:00:00+00:00,5 ward seats,,False,False,40.561930282394,-74.2942377488171,"Nov 02, 2021"
Worcester City Council,MA,LOCAL,US,11,2 years,http://www.worcesterma.gov/city-council,2021-11-02 05:00:00+00:00,,http://www.worcesterma.gov/elections,False,False,42.2676933771533,-71.8059829283626,"Nov 02, 2021"
Yonkers City Council,NY,LOCAL,US,7,4 years,http://www.yonkersny.gov/government/city-council,2021-11-02 05:00:00+00:00,"Council president, districts 2, 4, 6",,False,False,40.9418822029941,-73.8713340075294,"Nov 02, 2021"
